name,amenity,lat,lon
Siva Sivani Public School,school,17.7209547,83.3315061
Visakha Homeo Clinic,hospital,17.7224616,83.3094001
Nikitha Hospital,hospital,17.7426705,83.3146285
Sri Sairam Tiffins & Meals,restaurant,17.7358516,83.3211329
Appolo Pharmacy,pharmacy,17.743378,83.3351151
Foodland,restaurant,17.7433132,83.316728
Padmaja Hospital - Seethammadhara,hospital,17.7436298,83.3146125
Sairam Parlour,restaurant,17.7263144,83.303268
Jyothi Nursing Home,hospital,17.739081,83.3229595
Kamat,restaurant,17.7218843,83.318374
Pizza Hut,restaurant,17.7264696,83.3053084
Durga Nursing Home,hospital,17.7362275,83.2713316
Zeeshan Restaurant,restaurant,17.7118301,83.3014693
Alpha,restaurant,17.7121827,83.3017677
Alkapuri,restaurant,17.7129302,83.2997229
Nelluru Vaari Mess,restaurant,17.7153833,83.3015243
manjeera,restaurant,17.7151419,83.3010053
Eleven,restaurant,17.7241818,83.3175507
Vasu Deva Rao Clinic,clinic,17.7249342,83.3339991
Flying Spaghetti Monster,restaurant,17.7212175,83.3148642
Systems Design,school,17.7230565,83.3270212
Rama Hospitals,hospital,17.7375272,83.3071191
kalavathi hospital,hospital,17.7824442,83.2706719
LV Prasad Eye Hospital,hospital,17.7568569,83.3309144
Deccan Fried Chicken,restaurant,17.8004017,83.2100102
KIMS (formerly Queens NRI Hospital),hospital,17.7404353,83.3080536
Sri Venkateshwara Nursing Hospital,hospital,17.7147802,83.307414
Amulya Hospitals,hospital,17.7154685,83.3086985
kinnera mess,restaurant,17.7369086,83.3047732
Madhura inn restaurant & function hall,restaurant,17.7332822,83.3043675
Kala Hospital,hospital,17.7288521,83.3056846
Sri Venkateshwara Medicals,pharmacy,17.6890131,83.2419105
Guntur Mess,restaurant,17.6889118,83.2426004
gongura restaurant,restaurant,17.7460013,83.2387016
venkatadri vantillu,restaurant,17.7446743,83.2366431
Chaitanya Public School,school,17.6574107,83.132655
Delhi Public School Visakhapatnam,school,17.653747,83.1360611
Dr. VJs Cosmetic Surgery& Hair Transplantation Centre,hospital,17.7236037,83.2984784
Maa Kitchen,restaurant,17.7577154,83.2208551
sri gawri degree and PG College,college,17.7354822,83.2716113
Smiles Dental,clinic,17.7261703,83.3026853
Shivashanthi Restaurant,restaurant,17.7121488,83.3011842
Helapuri,restaurant,17.711948,83.3016479
St. Joseph's Hospital,hospital,17.7113427,83.3120581
shantiniketan mental health centre,hospital,17.710893,83.3118425
Mycure hospital,hospital,17.7120173,83.3146963
Baskinrobins,restaurant,17.7126305,83.314632
Surya skin care,hospital,17.7141226,83.3143316
NBM law college,school,17.7135912,83.3136878
Krishna Hospital,hospital,17.7100754,83.3109627
Aaradhya fertility centre,hospital,17.7149198,83.3128724
Sagar Durga Hospital,hospital,17.7086688,83.3109667
Simply south tiffins,restaurant,17.7101163,83.3113275
Shri Venkataramana Hospital,hospital,17.7090399,83.3111357
sai siddhartha biryani house,restaurant,17.7090943,83.3103619
SKML noodles point,restaurant,17.7144701,83.3114777
Bethany school,school,17.7105591,83.3137921
ABC hospital,hospital,17.7070739,83.3090178
Apex hospital,hospital,17.7075645,83.3089749
Usa hospital,hospital,17.7078558,83.3087882
Simhadri Hospital,hospital,17.7082343,83.3104939
Apollow pharmacy,hospital,17.7082036,83.3099146
Nature cure hospital,hospital,17.7076415,83.3111377
Life  medical centre,hospital,17.7076108,83.308198
Doctors care medical centre,hospital,17.7079072,83.3093781
Sriddha hospital,hospital,17.7081218,83.3094103
Pinnacle,hospital,17.7636985,83.3082425
Q1 Hospitals,hospital,17.7624241,83.3078726
GIMS,hospital,17.7620819,83.3116458
Apollo,hospital,17.7605744,83.317188
samyuktha degree college,school,17.7004791,82.9988644
Apex Hospital,hospital,17.7067706,83.3090204
Dj Clinic,hospital,17.7440297,83.3354643
Ramyasai Nursing Home,hospital,17.6861622,83.0016124
Vision Care Centre (Super Speciality Eye Hospital),hospital,17.7277139,83.295486
Apoorva Hospital,hospital,17.7300554,83.3075653
Anapoorna Hospital,hospital,17.7273371,83.3047865
Maxivision Super Speciality Eye Hospitals,hospital,17.7269219,83.304584
Care Dental Hospital,hospital,17.7363435,83.307247
M.G.R. Hospital,hospital,17.7325361,83.3309823
Rhea Hospital,hospital,17.7092414,83.3041777
Adarsha Orthopaedic Center,hospital,17.7109406,83.3117884
Prabha Clinic and Nursing Home,hospital,17.7162921,83.3041039
Mythri Nursing Home,hospital,17.7071258,83.3089118
Gowtami Hospital,hospital,17.6825514,83.2063977
Satyam Hospital,hospital,17.7499948,83.2187018
Venkatarama Hospital,hospital,17.7278327,83.3031356
SR Hospital,hospital,17.752968,83.2173438
Good Health New Central Hospital,hospital,17.7379611,83.3055443
Dr Rama Rao Hospital,hospital,17.7332163,83.2790163
Vijetha Hospital,hospital,17.7106199,83.3030283
Sun Multi Speciality Hospital,hospital,17.7350755,83.277593
Abc Hospital,hospital,17.7061715,83.3092725
Suma Maternity Home,hospital,17.7463633,83.2642758
"Lion Dist 324 C, Cancer Treatment and Research Center",hospital,17.7443962,83.3083713
Amg Hospital,hospital,17.7382076,83.3146349
Indus Hospitals,hospital,17.7108601,83.3026153
Visakha Ent Hospital,hospital,17.7264096,83.3107545
Susruta Hospital,hospital,17.6853215,83.208107
R K Hospital,hospital,17.6824479,83.1970797
Padmasri Hospital,hospital,17.7382447,83.3036815
Raghavendra Hospital,hospital,17.739964,83.3041066
Sujatha Hospital,hospital,17.6840514,83.1985898
Centre For Sight,hospital,17.7364998,83.3044016
Krishna Maternity And Nursing Home,hospital,17.7288061,83.293823
Amrutha Nursing Home Private Limited,hospital,17.69981,83.2960858
Padmaja Hospital - Gajuwaka,hospital,17.6867743,83.203619
Care Hospital - Maharanipet,hospital,17.7097505,83.3054544
Samudra Hospitals,hospital,17.7103989,83.3037458
Vikram Hospital,hospital,17.6870707,83.0013013
Abhaya Critical Care,hospital,17.7102328,83.3043534
Sunita Nursing Home,hospital,17.7362763,83.3115497
Waltair Multicare Hospital,hospital,17.7320085,83.333627
Siddharth Hospital,hospital,17.7118451,83.3038954
Visakha Children Hospital,hospital,17.7108448,83.3125274
Sraddha Hospital,hospital,17.7083599,83.3086663
Tirumala Vijaya Hospital,hospital,17.7440143,83.3352873
Aarif Nursing Home,hospital,17.7224323,83.309819
Vijaya Medical Centre,hospital,17.7099032,83.3107518
OMNI RK Super Specialty Hospital,hospital,17.7186287,83.3116168
Vasan Eye Care Hospital,hospital,17.7168287,83.3087254
Lazarus Hospital,hospital,17.7171512,83.3083036
Sai Satya Hospital,hospital,17.7685126,83.3147241
Bharathi Hospital,hospital,17.7108505,83.3085356
Lawrance and Mayo Hospital,hospital,17.7124353,83.302677
Babai Hotel,restaurant,17.8250924,83.3562687
Prema Hospital,hospital,17.8796711,83.3740931
C.S.R. Hospital,hospital,17.706036,83.3068947
City Care Hospital,hospital,17.7066084,83.3090506
Kamala Nursing Home,hospital,17.7404309,83.250969
Kalavathi Surgical Hospital and Laparoscopic Centre,hospital,17.7265297,83.2990453
Subham Prema Hospital,hospital,17.728124,83.3123571
Care Hospitals,hospital,17.7203686,83.3127339
Narayana Em school,school,17.7360659,83.3004644
MyCure Hospital,hospital,17.7109237,83.3023683
"Government Hospital,Bheemili",hospital,17.8877592,83.4513908
"GVMC hospital,FRU Arilova",hospital,17.7686588,83.3172347
"NTR Government Hospital,Anakapalle",hospital,17.6845257,83.0067163
Cghs wellness centre,clinic,17.7285015,83.3323437
Hotel Arina,restaurant,17.718636,83.20336
Bethany Christian Hospital,hospital,17.8027947,83.347569
Dr. Adams Hospital,hospital,17.7998444,83.3508178
Medinar Polyclinics,clinic,17.7267225,83.293382
Jishnu Clinic,clinic,17.8386364,83.4058416
Master Homeo Vaidyalayam,hospital,17.7341833,83.298429
Dr. Hedgewar School Hospital,hospital,17.8830152,83.3251813
Gayatri Health Care,clinic,17.7452893,83.3362101
Usha Clinic,clinic,17.8112947,83.3561911
Ramakrishna ENT Hospital,hospital,17.8118168,83.3557704
Dr. Ramarao Clinic,clinic,17.8896873,83.4529898
Piles Clinic,clinic,17.819961,83.3600858
Day & Night Hospital,hospital,17.7289618,83.310741
NRI General Hospital,hospital,17.921695,83.426394
ESI Hospital,hospital,17.927652,83.423953
Dr. Perumallu Clinic,clinic,17.8892578,83.452386
Anand Piles Clinic,clinic,17.8944854,83.4500642
Sanjivi Hospital,hospital,17.743927,83.328678
Bhagavathi Clinic,clinic,17.7433959,83.3042268
Sri Venkateswara Clinic,clinic,17.8338229,83.4123172
Government Hospital,hospital,17.735493,83.296865
Kundan Family Clinic,clinic,17.783556,83.357939
Sai Spoorthy Hospital,hospital,17.7274681,83.3043823
Amma Hospital,hospital,17.7468553,83.3307524
Sandhya Eye Hospitals,hospital,17.7322507,83.3169337
Arogya Hospital,hospital,17.9310994,83.427302
Cure Speciality Clinics,clinic,17.8025027,83.3535511
Sri Krishna Hospital And Mrudula Kidney Centre,hospital,17.7398696,83.3381086
Ramkumar Hospital,hospital,17.7347439,83.2989253
Reddy Hospital,hospital,17.7295515,83.3099357
Kalavathy Maternity Hospital,hospital,17.7301424,83.2912686
S.V Hospital,hospital,17.7315298,83.2982102
Naidu Hospital,hospital,17.8948381,83.4480273
Sri Sai Pallavi First Aid Centre and Clinic,clinic,17.8952546,83.4461276
Lakshmi Gayathri Hospital,hospital,17.7360864,83.2988976
Dr. Ravi Child Clinic,clinic,17.7380085,83.3136747
Saroja Hospital,hospital,17.733482,83.300686
Surya Hospital,hospital,17.8059869,83.3397326
Aman Clinic,clinic,17.8213674,83.3621718
A1 Hospital,hospital,17.739424,83.2994272
Mukhyamantri Arogya Kendram,clinic,17.7437712,83.3206661
Mukyamantri Arogya Kendram,hospital,17.8952319,83.4451285
CARE Hospitals,hospital,17.7275716,83.294103
Surya Nursing Home,hospital,17.9321277,83.423704
Medi Cos Den Hospital,hospital,17.7636399,83.3591053
Sri Surya Hospital,hospital,17.7427806,83.340338
Aruna ENT Clinic,clinic,17.737158,83.3002306
Sri Krishna Hospital,hospital,17.7346615,83.3003628
Sri Sai Sanjeevani Clinic,clinic,17.7792428,83.3577903
Sri Sai Piles Clinic,clinic,17.8695422,83.3665288
Ujhwal Hospitals,hospital,17.8131242,83.3555939
Navratna Kesava Rao Hospital,hospital,17.8900803,83.4536651
Dr. Kamalamma Hospital,hospital,17.7289528,83.2936785
National Orthopaedic Centre,hospital,17.7364007,83.3116732
Raphah Hospital,clinic,17.735531,83.31229
Sri Sai Clinic,clinic,17.8397834,83.4034376
Vivekanandha Hospital,hospital,17.7318218,83.2982472
Government ENT Hospital,hospital,17.745865,83.3141989
Padmavathi Hospital,hospital,17.7414689,83.3075918
GITAM Hospital,hospital,17.7846774,83.3746555
Shanthi Maternity and Infertility Clinic,clinic,17.745914,83.3316373
Sri Chandra Ortho Care,clinic,17.739513,83.2950164
Smar City Clinic,clinic,17.7325871,83.30115
Krishnaveni Hospital,hospital,17.7301583,83.2947484
Visakha Multispeciality Clinics,clinic,17.8147685,83.3649326
Aditya Physiotherapy And First Aid Clinic,clinic,17.8895311,83.4530473
Lb Prasad Medical,clinic,17.7298279,83.2941227
Guru Ayurcare,clinic,17.8098904,83.3546555
Morpheus Padmasri International IVF Centre,hospital,17.7380243,83.3034712
Amrutha Clinic & Lab,clinic,17.8118167,83.3644588
GK's Rainbow Dental Superspeciality Hospital,hospital,17.8024524,83.3535257
Krishna Children Hospital,hospital,17.7289115,83.293632
Master Homoeo Home,hospital,17.7274279,83.3077406
Sri Sai Ram Hospital,hospital,17.7322439,83.2918881
Dr. Ramakrishna Hospital,hospital,17.9309318,83.4260617
Dr. P.P.Srinivas Murthy Clinic,clinic,17.7415765,83.2988909
Visakha Clinic,clinic,17.8153454,83.3574768
Soham ENT Hospital,hospital,17.7442418,83.297657
Keerthana Nursing Home,hospital,17.8040379,83.3467145
Padmavathi Nursing Home,hospital,17.9307079,83.4191803
Sri Gayatri Nursing Home & Kasturi Maternity Hospital,hospital,17.7244631,83.3331524
Phani Poly Clinic,clinic,17.6861511,83.001288
Tirumala Jyoti Hospital,hospital,17.683136,83.001827
Dr. Soma Raju Children Hospital,hospital,17.6882064,83.0101255
Kalyani Nursing Home,hospital,17.687728,83.001839
Annapurna Hospital,hospital,17.6842691,83.011245
SS Dental Hospital,hospital,17.688264,83.009283
Maternity Hospital,hospital,17.6848737,83.0101274
Sai Teja Hospital,hospital,17.686424,83.00072
Benargy Hospital,hospital,17.6753904,83.0010632
Sri Sagar Hospital,hospital,17.6892581,83.0021022
R.K Medical Centre,clinic,17.6863639,83.0032805
Srinivasa Children's Hospital,hospital,17.688484,83.002889
London Children's Hospital,hospital,17.6852716,83.0024749
Nirmala Maternity Hospital,hospital,17.6854923,83.00227
Ayyappa Gupta Eye Hospital,hospital,17.6916683,83.0037356
Usha Prime Multispeciality Hospital,hospital,17.687618,83.001744
Satyadev ENT Clinic,clinic,17.684444,83.001365
Gadam Dental Hospital,hospital,17.687646,83.002401
Medikon Hospital,hospital,17.680999,83.001142
Ravi Hospital,hospital,17.686005,83.009456
Laxmi Orthopaedic Hospital,hospital,17.68721,83.005706
Sapthagiri Hospital,hospital,17.69098,83.0099047
Dr. Ram Mohan Hospital,hospital,17.685712,83.0015806
Mother and Child Hospital,hospital,17.685934,83.001269
Siddhartha Nursing Home,hospital,17.6843742,83.0022801
Sri Venkateswara Nursing Home,clinic,17.690373,83.000991
Sri Venkateswara Hospital,hospital,17.6777911,83.0006719
Kanakadurga Hospital,hospital,17.7101086,83.312939
Sunrise Hospitals,hospital,17.7409007,83.2662977
Sunrise Childern Hospital,hospital,17.687897,83.2053903
Sri Krishna Orthopaedic Hospital,hospital,17.6843101,83.193854
Sandhya Sree Nursing Home,clinic,17.6830346,83.201472
A N Beach Hospital - Multi Speciality Hospital,hospital,17.7129243,83.3197589
Lakshmi Nursing Home,clinic,17.6868428,83.2128855
Dr. Mangamma Hospital,hospital,17.7100946,83.3045397
Sri Lakhmi ENT Hospital,hospital,17.6829789,83.1975029
BHEL Hospital,hospital,17.702135,83.199526
Visakha Child Care Centre,hospital,17.6846529,83.2016314
Piles Hospital,hospital,17.6871805,83.2133794
Visakha Hospital,hospital,17.710144,83.304361
Sreenivasa Hospital,hospital,17.8231815,83.2060963
Simhagiri Hospital,hospital,17.6863477,83.2127666
City Hospital Ortho & Specialities,hospital,17.6852466,83.2053196
Medicover Hospital,hospital,17.712323,83.313972
Rotary Free Homeo Clinic,clinic,17.6723936,83.2011967
KIMS ICON Hospitals,hospital,17.7141817,83.1956548
Life Spring Hospital,hospital,17.688339,83.243601
Sri Krishna Pavan Homeo Clinic,clinic,17.796478,83.211053
Sri Lakshmi Children Hospital,hospital,17.6854195,83.2078579
Vijaya Krishna Clinic,clinic,17.710948,83.311491
Ankitha Hospital,hospital,17.6827868,83.1989654
Hymavathi Hospital,hospital,17.7480338,83.2192385
Pujitha Hospital,hospital,17.6844753,83.2100702
Sarojini Children's Hospital,hospital,17.7445712,83.2265444
SMS Hospital,hospital,17.7452036,83.2261912
Padmaja Clinic,clinic,17.6826577,83.2158252
Navaratnam - Kesava Rao Charitable Health Centre,hospital,17.6872165,83.2049981
Visakha Gynaec & Obst Hospital,hospital,17.8148001,83.2042804
Suryanarayana Hospital,hospital,17.7508459,83.2186331
Simhadri Women & Child Hospital,hospital,17.7656255,83.2256151
Vizag Ortho & Spine Centre,hospital,17.7104,83.312442
Sri Amrutha Hospital,hospital,17.710327,83.302862
Mukhyamantri Arogya Kendram,clinic,17.6836262,83.2336948
Mamata Hospital,hospital,17.6869092,83.2079845
Sri Surya Dental Hospital,hospital,17.709779,83.3103498
Sri Surya Hospital,hospital,17.708149,83.309857
Bhajrang Skin Clinic,clinic,17.6861162,83.2069228
Madhu Skin Clinic,clinic,17.6860455,83.2060364
Lata Hospital,hospital,17.6877091,83.205361
Janani Hospital,hospital,17.6865547,83.2073838
Geetha Hospital,hospital,17.6860522,83.2145015
Shree Krishna Health Centre,hospital,17.7104023,83.3105799
Aditya Obstetrics & Gynecology Hospital,hospital,17.745985,83.269641
ENT Clinic,clinic,17.7098153,83.3103685
Suresh Children's Clinic,clinic,17.7998618,83.2098576
Rotary Netra Rural Eye Hospital,hospital,17.831088,83.202451
Sri Surya Hospital,hospital,17.6849028,83.2092812
Harshitha Hospital,hospital,17.6863384,83.2101897
Pendurthi Govt Hospital,hospital,17.8094151,83.2070778
Sri Sai Balaji Clinic,clinic,17.7418536,83.2368507
Sri Sai Aditya Hospital,hospital,17.746278,83.269671
Srikanth's Speech & Hearing Clinic,clinic,17.710622,83.3022707
Gothis Doctor Chambers,hospital,17.710382,83.312125
Harini Hospital,hospital,17.6795765,83.2055093
Janaki Polyclinic,clinic,17.6930517,83.2049423
Heritage Kerala Ayurveda Hospital,hospital,17.7671455,83.2120798
Ashok Clinic,clinic,17.8220019,83.2059135
GSR Chest Clinic,clinic,17.6848418,83.1961794
Ramya Hospital,hospital,17.710544,83.304302
Sanjevani Mega Clinic,clinic,17.7098493,83.3103812
Sri Sapthagiri Hospitals,hospital,17.805851,83.213061
Government Hospital,hospital,17.7524734,83.2161371
Raghavendra Eye Hospital,hospital,17.7476896,83.2199593
ENT Clinic,clinic,17.75108,83.218258
Muddu Krishna Children Hospital,hospital,17.6852715,83.2046951
Sarojini Devi Skin Hospital,hospital,17.7166466,83.3090277
Ramsaranya Child Care Hospital,hospital,17.7102508,83.3143316
Baba Hospital,hospital,17.708177,83.308867
Triveni Hospitals,hospital,17.8177533,83.2064302
Aditya Multi Care Hospital,hospital,17.7100474,83.3046802
M.B. Hospitals,hospital,17.763448,83.3106082
ApolloHospitals,hospital,17.7171444,83.3091374
HCG Cancer Centre,hospital,17.7638753,83.3057236
Star Pinnacle Heart Centre,hospital,17.7632652,83.3078391
Homi Bhabha Cancer Hospital & Research Centre,hospital,17.6898831,83.1144238
Ramsaranya Hospitals,hospital,17.7097535,83.3106734
Visakha Hospitals And Diagnostics,hospital,17.7202856,83.3130073
SevenHills Hospital,hospital,17.7173631,83.3094245
St Anns Jubilee Memorial Hospital,hospital,17.6843531,83.2377236
Sri Narayana Defence Academy Junior & Degree College,college,17.8934834,83.2975325
Vijnana Vihara Residential School,school,17.8832002,83.3240093
Vijnana Vihara Residential School,school,17.8832006,83.3239894
Suraksha Hospital,hospital,17.7396152,83.2555653
Varma Hospitals,hospital,17.7640286,83.3113995
Sai Spoorthy Hospital,hospital,17.7295406,83.309347
Government Regional Eye Hospital,hospital,17.7304744,83.3113942
LG Hospitals,hospital,17.710174,83.3045894
Omega Hospitals,hospital,17.763791,83.3124349
Medicover Hospitals,hospital,17.7638179,83.3121251
Ramsaranya Hospitals,hospital,17.7100054,83.3109067
GJ Hospitals And Trauma Centre,hospital,17.7336653,83.3324401
Sankar Foundation Eye Hospital,hospital,17.6812931,83.2159491
site,hospital,17.7623232,83.3144561
Apollo Pharmacy,pharmacy,17.7496301,83.2560947
Chest Hospital and Medical Store,hospital,17.7493798,83.2191542
Arabica,restaurant,17.7264206,83.3387927
Paradise,restaurant,17.7195637,83.3330963
Cabrilos,restaurant,17.7111181,83.3154924
Indu's dental specialities,clinic,17.7361705,83.3076925
VFC V3 Fried chicken,restaurant,17.8076169,83.2081242
Food club,restaurant,17.8088443,83.2082848
Celebrations Restaurant,restaurant,17.8087407,83.2083207
Eye Hospitals,hospital,17.809861,83.2082462
Sri ramanjaneya foods,restaurant,17.8097234,83.2044675
Urban Treats Ruchi Family Restaurant,restaurant,17.8253473,83.3562943
Apollo Pharmacy,pharmacy,17.8243797,83.3567637
Nawabs Biryani,restaurant,17.8240869,83.3567741
Treet Food Court,restaurant,17.8252237,83.3562356
Amogha,restaurant,18.0467871,83.40406
Bakasura Hotel,restaurant,17.8445308,83.1979626
Alekhya Biryani,restaurant,17.8218709,83.2048884
Apollo Pharmacy,pharmacy,17.7992566,83.2108041
MPP school,school,17.777915,83.2163785
Apollo Pharmacy,pharmacy,17.7350341,83.2716634
Apollo Pharmacy,pharmacy,17.7405178,83.2449377
Ravindra Bharathi School,school,17.79843,83.2096569
Apollo Pharmacy,pharmacy,17.7765459,83.2161174
Apollo Pharmacy,pharmacy,17.8204103,83.2057411
Paakashala Restaurant,restaurant,17.7998399,83.2102647
Apollo Pharmacy,pharmacy,17.7530051,83.2174317
Donne Biryani House Restaurant,restaurant,17.7249978,83.305777
Amritsar Haveli,restaurant,17.7234725,83.3099803
Biriyanis Lounge Restarant,restaurant,17.725587,83.303254
Rajdhani Multi cuisine,restaurant,17.7256929,83.3032252
Dr.Mohan's Diabetes Specialities Centre,hospital,17.7251141,83.3147147
Majils Darbar,restaurant,17.7256404,83.3036875
The Invitation 365,restaurant,17.7240756,83.318478
The Invitation 365,restaurant,17.723802,83.3182068
Apollo Pharmacy,pharmacy,17.723878,83.3184059
Tandoori Treats,restaurant,17.7252861,83.3167223
Kritunga,restaurant,17.7262237,83.3039546
Sree Kamat,restaurant,17.726071,83.3039449
Sai Parlour Tiffins,restaurant,17.766173,83.2173214
MedPlus,pharmacy,17.7359818,83.2674111
Celebrations,restaurant,17.7406766,83.247516
Hotel Prabha,restaurant,17.7431242,83.2352378
Apollo Pharmacy,pharmacy,17.743595,83.2333242
Pavani Medicals,pharmacy,17.7511088,83.2182237
Masaledaar Desi Rasoi,restaurant,17.7253366,83.3036399
Absolute Barbecues,restaurant,17.7254213,83.3036774
Vijaya,pharmacy,17.7317172,83.3066805
Babai Biryani,restaurant,17.73597,83.307157
Hotel Alpha,restaurant,17.6850483,83.203902
Apollo Pharmacy,pharmacy,17.6880696,83.1338381
Eaters Stop Restaurant 4th Town,restaurant,17.7387366,83.3041844
Sri Viswa School,school,17.739898,83.3058704
MedPlus,pharmacy,17.7394679,83.30576
Coffee And Kitchen,restaurant,17.7417274,83.3060877
Abhiruchi Tiffin Center,restaurant,17.7417089,83.3058933
Nanak Bakery,restaurant,17.7371438,83.3080835
B'treats,restaurant,17.7422461,83.3071621
New Deepak Punjabi Dhaba,restaurant,17.7357544,83.3045788
Apollo Pharmacy,pharmacy,17.7350256,83.3042503
AMG Hospital,hospital,17.7414668,83.3118352
Apollo Pharmacy,pharmacy,17.7383707,83.3130433
Real Deepak Punjab Dhaba,restaurant,17.7378816,83.3099326
The Shawarma Co,restaurant,17.7400837,83.2997632
MedPlus,pharmacy,17.736649,83.2997388
Apollo Pharmacy,pharmacy,17.7341905,83.2731535
Red Velvet,restaurant,17.740738,83.247286
bucket biriyani,restaurant,17.727333,83.3114725
Tycoon,restaurant,17.7254922,83.317058
Red pepper,restaurant,17.7348593,83.3130516
Madhura,restaurant,17.9195292,83.41704
Kamat,restaurant,17.8834107,83.3770966
Food Plaza,restaurant,17.8819073,83.3763233
Sri Sai Medicals,pharmacy,17.8043413,83.3537043
Zeeshan,restaurant,17.8043638,83.3528357
Element E7 Restrobar,restaurant,17.8045659,83.3530204
Pizza Hut,restaurant,17.8025089,83.3536058
Somaa,restaurant,17.7782046,83.3542709
Medicover Hospitals,hospital,17.7478206,83.3318795
Hotel Muntaj,restaurant,17.744045,83.3277855
Kritunga,restaurant,17.8020126,83.3534138
Dr BR Ambedkar Gurukulam,school,17.7695657,83.2812434
MedPlus,pharmacy,17.7715948,83.239284
Hotel Sitara Grand,restaurant,17.7712985,83.2384029
Salt & Pepper,restaurant,18.0527238,83.4002374
Grand Alpha,restaurant,17.7434774,83.2312221
MedPlus,pharmacy,17.7435093,83.2304987
Sai Ramkrishna Pharmacy,pharmacy,17.7437014,83.2289186
MedPlus,pharmacy,17.7457212,83.2225925
Sri Sai Ram Parlour,restaurant,17.7254689,83.3059027
Dine Destiny,restaurant,17.7277209,83.3391847
Gismat Mandi,restaurant,17.7337883,83.3406169
Imperial Spice,restaurant,17.7433579,83.3442904
Apollo Pharmacy,pharmacy,17.7361267,83.3345037
Vaishnavi Medical,pharmacy,17.7495767,83.2188998
Apollo Pharmacy,pharmacy,17.7487309,83.2194218
Sri Dhavala Medicals,pharmacy,17.7485165,83.2196592
Sri Lalitha Medicals,pharmacy,17.7400186,83.2539492
MedPlus,pharmacy,17.7401011,83.253535
Sri Manikanta Medicals,pharmacy,17.7400803,83.2536185
Suneetha Hospital Dr V Anand Rao,hospital,17.7401303,83.2535864
Apollo Pharmacy,pharmacy,17.7401985,83.2526881
Sri Chaitanya Techno School,school,17.7413557,83.2375401
Mandi Restaurant,restaurant,17.742226,83.2381724
Pizza Hut,restaurant,17.7342188,83.3185057
Apollo Pharmacy,pharmacy,17.7372058,83.3219765
Vintage Spices,restaurant,17.8026924,83.3533741
Vijayam School,school,17.8239752,83.3524502
Sri Krishna Grammar School,school,17.7639754,83.3296454
Sree Arunodaya School,school,17.7632507,83.3309447
Curry Point,restaurant,17.763326,83.3308384
Apollo Pharmacy,pharmacy,17.7636954,83.3306692
Sree krishna Grammar School,school,17.7637595,83.3294722
Sree Krishna Grammar School,school,17.7656345,83.3293192
Sree Krishna Grammar School,school,17.7654285,83.3292387
Aditya Degree College,college,17.7318803,83.3172009
Medplus,pharmacy,17.8203015,83.2057726
Moghals Biryani House,restaurant,17.811093,83.2072421
Santhi Medical Stores,pharmacy,17.8051502,83.2092213
Sai Clinic,hospital,17.8046265,83.2093877
Saadhana Hospitals,hospital,17.8009047,83.2105594
Generic Medical Store,pharmacy,17.8006523,83.2104259
Kritunga,restaurant,17.8022346,83.2095155
Ghumaghumalu,restaurant,17.8019941,83.20959
Mayuri,restaurant,17.8007745,83.2098346
VJ Pharmacy,pharmacy,17.8006055,83.2100269
Surabhi Clinics,hospital,17.8032146,83.2092659
Ramachandra,pharmacy,17.8032889,83.2093038
Hey Delicisus,restaurant,17.8029816,83.2093386
Sarat Chandras Speciality Clinic,hospital,17.8024276,83.2094537
Generic Medical Store,pharmacy,17.8048719,83.2087962
MedPlus,pharmacy,17.8051319,83.2088076
Lavanya Medical,pharmacy,17.8052804,83.2087722
Apollo Pharmacy,pharmacy,17.7321305,83.3168907
Sri Sai Ram Medical,pharmacy,17.7766478,83.2161731
Lucky Arabian Mandi,restaurant,17.7481234,83.2200535
Yalamarty Pharmacy College,college,17.899835,83.3342476
Yalamarty Polytechnic College,college,17.8990155,83.3339016
Dr BV Adinarayana Childrens Specialist,hospital,17.7350078,83.2719764
Sri Hyndhavi Medical and General Stores,pharmacy,17.7348232,83.2721253
The Arabian Kitchen,restaurant,17.7357615,83.2683058
Rightway School,school,17.7349954,83.2700271
Apollo Pharmacy,pharmacy,17.7348973,83.2705009
Sri Vagdevi School,school,17.7354555,83.270296
Arabian Nights,restaurant,17.7384623,83.3231332
Waltair Spice,restaurant,17.7367818,83.3361188
Hotel Anupama,restaurant,17.7283239,83.3271471
Ayushman arogya mandir,hospital,17.729599,83.3294672
Hotel Amrutham,restaurant,17.7365395,83.3212245
Waltair Grills,restaurant,17.7320334,83.3386035
GVMC Primary School,school,17.7313197,83.2785659
Sudheer Food Court,restaurant,17.7883435,83.2137351
Delhi Public School,school,17.7425283,83.2396113
Amaravati Hotel & Catering,restaurant,17.7762154,83.2166558
Annapurna,restaurant,17.7108053,83.2989848
Apollo Pharmacy,pharmacy,17.7447284,83.3280126
Central Pharmacy,pharmacy,17.7080946,83.3077576
Sukhibhava Medicals,pharmacy,17.7098373,83.3051908
Jai Jagannath Parlor,restaurant,17.7103472,83.3030649
Andhra Vindu,restaurant,17.8061519,83.2084497
Neha's Kitchen,restaurant,17.6850378,83.1623547
Anna Canteen,restaurant,17.6899483,83.2332053
Eaters Stop,restaurant,17.7347613,83.228131
Pizza Hut,restaurant,17.6967262,83.1629557
Nandanam,restaurant,17.6980422,83.1612445
MedPlus,pharmacy,17.6982716,83.1602748
Vaidyah Medicals,pharmacy,17.7715267,83.2377239
Generic Medicals,pharmacy,17.7716315,83.2378589
Annapurna Restaurant,restaurant,17.7716304,83.2380398
Apollo Pharmacy,pharmacy,17.7713699,83.23695
Zeeshan Restaurant,restaurant,17.7386151,83.3232743
Maaya,restaurant,17.7413121,83.3272678
Life Pharmacy,pharmacy,17.7471388,83.329314
Lakshya Pharmacy,pharmacy,17.7475773,83.330873
Sri Gowri Medicals,pharmacy,17.8024962,83.3527717
Apollo Pharmacy,pharmacy,17.8034519,83.3527695
Teluginti,restaurant,17.8084315,83.3550498
Sri Aditya Medical,pharmacy,17.8103757,83.2079558
Generic Medical Store,pharmacy,17.8096092,83.2080662
Dr. Gunturu Indira,clinic,17.8095921,83.2081267
Murali Medical,pharmacy,17.8094772,83.2081298
Maathrusree,clinic,17.8079141,83.2087422
Nawabi Mandi Darbar,restaurant,17.8067197,83.2083716
Sri Lakshmi Medicals & General Stores,pharmacy,17.8004314,83.2105125
Ramu Medical,pharmacy,17.7993582,83.2108277
Drugmart Medicals,pharmacy,17.7991986,83.2108501
Mothers Care Clinic,clinic,17.7982745,83.211095
Hotel muntaj,restaurant,17.798121,83.2111845
Shyam Sundar Medical Care,clinic,17.7977167,83.2112363
The School of Autism,school,17.7437218,83.3310416
MedPlus,pharmacy,17.7440648,83.3314955
MedPlus,pharmacy,17.7356552,83.3334101
Sri Orthopedic & Physiotheraphy Clinic,clinic,17.7361703,83.3339276
La Pino'z Pizza,restaurant,17.7362559,83.3340298
Venkatalaxmi Medical,pharmacy,17.7365275,83.3343828
KIMS Hospitals,hospital,17.7373995,83.3353795
KIMS Fertility,clinic,17.7374553,83.3354205
Smart Health Clinic,clinic,17.7375464,83.3355691
Veera Clinic,clinic,17.7377773,83.336297
Dr. Ram's Heart & Multispeciality Clinic,clinic,17.7383032,83.3364167
Apollo Pharmacy,pharmacy,17.7464492,83.3320262
Padmavathi Restaurant,restaurant,17.7467675,83.3316998
SR Medical Center,clinic,17.7457642,83.3316544
Varshini Medicals,pharmacy,17.7044393,83.2975669
Apollo Pharmacy,pharmacy,17.704318,83.2975412
Rama Krishna  Medical Stores,pharmacy,17.7020158,83.2962077
Pavitra Medical & General Stores,pharmacy,17.9292438,83.4243684
Visakha Medicals,pharmacy,17.9297759,83.4247984
Vajra Chandra Medical & General,pharmacy,17.9306323,83.4254566
Apollo Pharmacy,pharmacy,17.9312281,83.4258448
Apollo Pharmacy,pharmacy,17.9294559,83.4292105
B Zag Family Restaurant,restaurant,17.8803145,83.4459925
Avinash Neuro Clinic,clinic,17.8040265,83.3513809
Hema Medicals,pharmacy,17.8037495,83.352525
Beyond Autism,clinic,17.8040622,83.3478371
Manikanta Food Court,restaurant,17.8040649,83.3470123
Raju's Kitchen,restaurant,17.8040554,83.3465751
Balaji Medicals,pharmacy,17.8040652,83.3456144
MedPlus,pharmacy,17.8043659,83.3436124
Apollo Pharmacy,pharmacy,17.8045113,83.3430187
Hotel Muntaj,restaurant,17.8065254,83.3391323
BPR Restaurant,restaurant,17.8068402,83.3389506
Lotus English Medium School,school,17.8051004,83.3425095
Eat Sure,restaurant,17.804362,83.3498219
Pandit Rajasthani Restaurant,restaurant,17.7172399,83.2932379
Sharma Bhojanalaya,restaurant,17.7170499,83.2937394
Karunakar Medicals,pharmacy,17.7207941,83.3018415
Apollo Pharmacy,pharmacy,17.7289909,83.3281477
Swamy Medicals,pharmacy,17.7289105,83.3280596
Shoulder & Knee Clinic,clinic,17.7311817,83.3306733
Apollo Pharmacy,pharmacy,17.7320363,83.333213
Falak Restaurant,restaurant,17.7303144,83.3155371
moon bar & kitchen,restaurant,17.7289896,83.3139569
Apollo Pharmacy,pharmacy,17.7436237,83.3150806
Helapuri,restaurant,17.7250819,83.3058498
Sri Padmavathi Medical Stores,pharmacy,17.7277486,83.3062174
Apollo Pharmacy,pharmacy,17.7298086,83.3064227
Apollo Clinic,clinic,17.7298529,83.3063491
Sri Sai Varun Medical & General Stores,pharmacy,17.7315069,83.3066934
Sri Kumaran Medical Stores,pharmacy,17.731582,83.3069769
Kusuma Medicals,pharmacy,17.7321161,83.3067265
Sri Kanaka Sai Medicals,pharmacy,17.7334262,83.3072382
Apollo Pharmacy,pharmacy,17.7338416,83.3072822
Abids Restaurant,restaurant,17.7271488,83.303887
Indus Hospitals,hospital,17.7625271,83.3075353
Narayana Medicity,hospital,17.7621246,83.3119581
Aathidyam Restaurant,restaurant,17.7278992,83.3119523
Andhra Vindu,restaurant,17.723907,83.3136532
Sanjivani Hospital,hospital,17.7403603,83.2464417
Government School,school,17.7400572,83.2426355
Hotel Golden Alfa,restaurant,17.7428684,83.2342475
Gandhi,hospital,17.7989437,83.3963328
forest,hospital,17.7952383,83.3893022
forest,hospital,17.7953651,83.3890616
forest,hospital,17.7989074,83.3882361
beach paradise,restaurant,17.8469396,83.409493
School of Law,college,17.7830802,83.3779809
Somanadh Medicals,pharmacy,17.6872443,83.0145693
MedPlus,pharmacy,17.687792,83.0106565
Geetha Eye & Orthopaedic Hospital,hospital,17.6872398,83.0127619
Apollo Pharmacy,pharmacy,17.6871365,83.0132135
Raanos,restaurant,17.7277306,83.2242472
Helapuri Restaurant & Buffet,restaurant,17.7262423,83.3028774
Bal Vikasa Foundation Bridge School,school,17.6995098,83.3015825
Sri Basara Junior College,college,17.7347281,83.3006752
Life Medicals,pharmacy,17.7317649,83.3005017
Dhanvita Medical Stores,pharmacy,17.7315647,83.3004868
Sree Siva Narayana Medicals,pharmacy,17.7298565,83.3006959
Vinayaka Medicals,pharmacy,17.7255949,83.2988194
AP Medicals,pharmacy,17.7256461,83.2988235
Sree Venkata Rama Medicals,pharmacy,17.7262102,83.2989878
Annapurna Bhojanalayam,restaurant,17.7263411,83.2990023
AP Medicals,pharmacy,17.7269852,83.2993676
Apollo Pharmacy,pharmacy,17.7269497,83.299679
Chutneys,restaurant,17.7272525,83.3009483
Chittibabu Kodi Pulav,restaurant,17.7272568,83.3010795
MedPlus,pharmacy,17.7272838,83.3000096
Generic Medical Shop,pharmacy,17.727295,83.2996641
Waltair Mess,restaurant,17.7274878,83.2980514
Rajugari Vindhu,restaurant,17.7296691,83.2993587
MedPlus,pharmacy,17.729861,83.2991417
Generics,pharmacy,17.7307223,83.299492
Generic Medical Store,pharmacy,17.7321345,83.2992304
Apollo Pharmacy,pharmacy,17.7323019,83.2992479
Sri Vijaya Duga Medicals,pharmacy,17.7342244,83.2998045
Food World,restaurant,17.7120377,83.318272
Mayuri Restaurant,restaurant,17.7119971,83.3182333
Rajeswari Medical & General Store,pharmacy,17.750585,83.2464525
Healthcare Plus,pharmacy,17.7504386,83.2485847
Apollo Pharmacy,pharmacy,17.7501467,83.2485662
MedPlus,pharmacy,17.750277,83.2507051
Sri Gayatri Vidya Nilayam,school,17.7499395,83.2513306
K4 Restaurant,restaurant,17.7501841,83.2514842
PEN School,school,17.7497761,83.2525354
Pulka & Chapathi,restaurant,17.7497669,83.2541829
Life Generic Medical Store,pharmacy,17.7497285,83.2556278
New Ram Sai Parlour,restaurant,17.7494834,83.2563646
New Ram Sai Pure Veg Corner,restaurant,17.7492383,83.2563364
G.N. Raju Restaurant,restaurant,17.7523403,83.3499503
Anna Canteen,restaurant,17.6941843,83.0083434
Vantashala,restaurant,17.7173952,83.3047515
MedPlus,pharmacy,17.7166884,83.3045103
Kandhari,restaurant,17.7166455,83.3274557
Vijaya Medical Center,clinic,17.7401504,83.3397236
PEN School,school,17.7149959,83.3011546
Rasora Restaurant,restaurant,17.7149245,83.3010341
Alakpuri Family Restaurant,restaurant,17.7141827,83.3008151
Sri Durga Medicals,pharmacy,17.7145879,83.3002595
Mahadev Restaurant,restaurant,17.7149675,83.2991628
Zenin Pharmacy,pharmacy,17.714561,83.2988667
Vijaya Luke College Of Nursing,college,17.7151867,83.3002167
P.E.N. School,school,17.7157107,83.3008254
MedPlus,pharmacy,17.8217848,83.204506
Swami Day & Night Tiffins,restaurant,17.8224909,83.205133
NBM Law college,college,17.7390226,83.3118887
Hotel Beach Paradise,pg,17.8469583,83.4095376
Rakul Followers,pg,17.6877043,83.2447981
Hotel Blue Moon,pg,17.7130524,83.299453
Nalco guest house,pg,17.7158399,83.311481
AMCOSA functional hall,pg,17.7119764,83.3111783
Jublee home,pg,17.712467,83.3121858
Kalyan mahanthi mansion,pg,17.7100583,83.3136741
beach view guest house,pg,17.7095166,83.3146182
Trinity holy church,pg,17.7089034,83.3137492
Zion house of prayer,pg,17.7100583,83.3129231
Budhil Hotel,pg,17.7257976,83.3068515
Hotel Sai national,pg,17.7255262,83.2983783
Rockdale,pg,17.7163638,83.3083471
Four Points by Sheraton,pg,17.7208884,83.3123966
Green Park,pg,17.7153753,83.306264
Royal Fort,pg,17.7231319,83.3093748
Meghalaya,pg,17.7233686,83.3097133
Ambica Sea Green,pg,17.718696,83.3312158
Hi In,pg,17.7363567,83.3410775
Viswakarma Dormitory and Lodge,pg,17.7170391,83.2934265
OYO 60899 V3 Comforts,pg,17.8078592,83.2080963
GOVT BC COLLEGE BOYS HOSTEL,pg,17.8094801,83.2067052
Burley Cottage,pg,17.724955,83.3178831
Sri Lakshmi Lodge,pg,17.7431577,83.235134
Hotel Harita,pg,17.7191431,83.2930015
OYO Sindhura Guest House,pg,17.7391879,83.3049037
Savera Restaurant,pg,17.7247839,83.3085072
Athidhi devo bava,pg,17.7314747,83.3364845
Royal Stay Inn,pg,17.8169821,83.2068411
Hotel Sowbhagya,pg,17.7189563,83.3060968
Sri Vignesh Dormitory,pg,17.7099444,83.3041632
Signature Hotels,pg,17.7162647,83.2035517
Vani Lodge,pg,17.7123132,83.2973532
Hotel Wonderful Inn,pg,17.7126113,83.2970687
Hotel Taj Mahal,pg,17.7125116,83.2981621
My Room Luxury Stay,pg,17.7411216,83.3271854
Guest House,pg,17.7416501,83.3273443
Sri SNK Grand,pg,17.8083242,83.2086438
Sujana Ladies Hostel,pg,17.7384506,83.3365948
Hotel Square Inn,pg,17.7467352,83.3316729
Hotel Morya,pg,17.7178828,83.2929835
Sai Jutika Grand Lodge,pg,17.7161427,83.2934989
Sree Kanya Lodge,pg,17.7160765,83.2934927
KNR Residency,pg,17.7196071,83.2938829
Hotel Golden Tulip,pg,17.7197822,83.3027017
North Way Hotel,pg,17.718278,83.3024369
Hotel Akshara,pg,17.7280211,83.2931205
Ladies Hostel,pg,17.7310092,83.304227
Keerthi Residency,pg,17.735358,83.3207236
Hotel Ambica Grand,pg,17.7347789,83.3155401
Hotel Lata Grand,pg,17.7244441,83.3134939
Boys Hostel,pg,17.7241773,83.3132765
Sri Brundavan Grand Inn,pg,17.6874369,83.0160201
Hotel Geetha Inn,pg,17.7261812,83.3014099
Hotel Simhadri Lodge,pg,17.7259238,83.3014144
Lakshmi Residency,pg,17.7265454,83.3016743
RR Inn Lodge,pg,17.7264139,83.2990178
Prince Boys Hostel,pg,17.7179667,83.3038189
Sri Srinivasa Guest House,pg,17.7162258,83.3039766
Sri Balaji Ladies Hostel,pg,17.7279011,83.3095893
Hotel Ocean Spice,pg,17.7432821,83.3443006
Hotel New Prince,pg,17.7152359,83.2997851
Hotel Rajdhani,pg,17.7153208,83.2995554
Sree Surya Residency,pg,17.7156502,83.2993114
Jai Krishna Residency,pg,17.7152142,83.2992327
Ashoka Residency,pg,17.7150584,83.2991825
Hotel Rajdhani Grand,pg,17.7140095,83.2997418
Hotel Orange,pg,17.7143162,83.2998291
Hotel Sai Central,pg,17.7152076,83.3006949
Hotel Sinka Grand,pg,17.7278481,83.2969024
